[{"name":"34","address":null,"city":null,"state":null,"postal":"\u00c1rea total: 0.34","phone":"","web":"","lat":0,"lng":null},{"name":"ACTO REY","address":null,"city":"SANTA ROSA DE TAPIAS","state":null,"postal":"\u00c1rea total: 1","phone":"","web":"","lat":0,"lng":null},{"name":"AGUA BONITA","address":null,"city":"EL VENADO","state":"EL VENADO","postal":"\u00c1rea total: 18","phone":"","web":"","lat":0,"lng":null},{"name":"ALEJA","address":null,"city":"GUABAS","state":"LA BONITA","postal":"\u00c1rea total: 0.5","phone":"","web":"","lat":0,"lng":null},{"name":"ANASTASIA","address":null,"city":"MANDIVA","state":"LA PLAYA","postal":"\u00c1rea total: 1.92","phone":"","web":"","lat":3.13133,"lng":null},{"name":"ANA Y ALEJA","address":null,"city":"QUINAMAYO","state":"RIO CAUCA","postal":"\u00c1rea total: 1","phone":"","web":"","lat":0,"lng":null},{"name":"ANA Y ALEJA","address":null,"city":"QUINAMAYO","state":"RIO CAUCA","postal":"\u00c1rea total: 1","phone":"","web":"","lat":0,"lng":null},{"name":"AROMALES","address":null,"city":"ATUNCELA","state":"V\u00cdA AL CEMENTERIO","postal":"\u00c1rea total: 0.25","phone":"","web":"","lat":0,"lng":null},{"name":"BANANAS","address":null,"city":"SAN JOSE","state":null,"postal":"\u00c1rea total: 0.25","phone":"","web":"","lat":0,"lng":null},{"name":"BARRANCO","address":null,"city":"LLANO BAJO","state":null,"postal":"\u00c1rea total: 2","phone":"","web":"","lat":3.69,"lng":null},{"name":"BELLAVISTA","address":null,"city":"LA FLORESTA","state":"MONTELORO","postal":"\u00c1rea total: 2","phone":"","web":"","lat":0,"lng":null},{"name":"BELLAVISTA","address":null,"city":"MORAL BAJO","state":null,"postal":"\u00c1rea total: 2","phone":"","web":"","lat":4.4233,"lng":null},{"name":"BELLAVISTA","address":null,"city":"CHAGRES","state":"LA PORTADA","postal":"\u00c1rea total: 0.64","phone":"","web":"","lat":0,"lng":null},{"name":"BELLAVISTA","address":null,"city":"LAS GUACAS","state":null,"postal":"\u00c1rea total: 2.56","phone":"","web":"","lat":0,"lng":null},{"name":"BELLAVISTA","address":null,"city":"CAMPO ALEGRE","state":null,"postal":"\u00c1rea total: 2.5","phone":"","web":"","lat":0,"lng":null},{"name":"BELLA VISTA","address":null,"city":"TRES PUERTAS","state":null,"postal":"\u00c1rea total: 1","phone":"","web":"","lat":0,"lng":null},{"name":"BELMONTE","address":null,"city":"MESTIZAL","state":null,"postal":"\u00c1rea total: 1","phone":"","web":"","lat":4.225425,"lng":null},{"name":"BETANIA","address":null,"city":"SAN ANTONIO","state":"CALLEJON AL MEDIO","postal":"\u00c1rea total: 0.32","phone":"","web":"","lat":0,"lng":null},{"name":"BRISAS DE CALI","address":null,"city":"SAN VICENTE","state":null,"postal":"\u00c1rea total: 0.02","phone":"","web":"","lat":0,"lng":null},{"name":"BRISAS DEL VALLE","address":null,"city":"CAMPO ALEGRE","state":null,"postal":"\u00c1rea total: 2.5","phone":"","web":"","lat":0,"lng":null},{"name":"BUENOS  AIRES","address":null,"city":"LA  BALASTRERA","state":"PARTE  ALTA","postal":"\u00c1rea total: 1.9","phone":"","web":"","lat":3.594337,"lng":null},{"name":"CANTA RANA","address":null,"city":"HIGUERONCITO","state":"CANTA RANA","postal":"\u00c1rea total: 1","phone":"","web":"","lat":4.481666,"lng":null},{"name":"CASA BLANCA","address":null,"city":"MIRAFLORES","state":"LA QUIEBRA DEL INDIO","postal":"\u00c1rea total: 5","phone":"","web":"","lat":0,"lng":null},{"name":"CASABRAVA","address":null,"city":"AGUAMONA","state":null,"postal":"\u00c1rea total: 3","phone":"","web":"","lat":3.82,"lng":null},{"name":"CASA TEJO","address":null,"city":"LA ALBANIA","state":null,"postal":"\u00c1rea total: 2.24","phone":"","web":"","lat":0,"lng":null},{"name":"CASA VERDE","address":null,"city":"JIGUALES","state":null,"postal":"\u00c1rea total: 1.5","phone":"","web":"","lat":0,"lng":null},{"name":"CHAGUALEROS","address":null,"city":"LAS CAMELIAS KM 42","state":null,"postal":"\u00c1rea total: 0.01","phone":"","web":"","lat":0,"lng":null},{"name":"CHANEL","address":null,"city":"LAS BRISAS","state":"SAN MARCOS","postal":"\u00c1rea total: 8.3","phone":"","web":"","lat":0,"lng":null},{"name":"CHANEL","address":null,"city":"LAS BRISAS","state":"SAN MARCOS","postal":"\u00c1rea total: 19","phone":"","web":"","lat":0,"lng":null},{"name":"CHANEL","address":null,"city":"LAS BRISAS","state":"SAN MARCOS","postal":"\u00c1rea total: 19","phone":"","web":"","lat":0,"lng":null},{"name":"EL AGUA","address":null,"city":"LAS DELICIAS","state":null,"postal":"\u00c1rea total: 0.16","phone":"","web":"","lat":0,"lng":null},{"name":"EL AGUACATAL","address":null,"city":"LA COREA","state":null,"postal":"\u00c1rea total: 2.5","phone":"","web":"","lat":0,"lng":null},{"name":"EL AGUACATAL","address":null,"city":"LA COREA","state":null,"postal":"\u00c1rea total: 2.5","phone":"","web":"","lat":0,"lng":null},{"name":"EL AGUACATAL","address":null,"city":"LA COREA","state":null,"postal":"\u00c1rea total: 2.5","phone":"","web":"","lat":0,"lng":null},{"name":"EL AMPARO","address":null,"city":"EL AMPARO","state":null,"postal":"\u00c1rea total: 1.2","phone":"","web":"","lat":0,"lng":null},{"name":"EL AVION","address":null,"city":"JIGUALES","state":"CURVA DEL AVION","postal":"\u00c1rea total: 2","phone":"","web":"","lat":0,"lng":null},{"name":"EL BALLANO","address":null,"city":"ZONA URBANA","state":"EL BALLANO","postal":"\u00c1rea total: 2","phone":"","web":"","lat":4.607999,"lng":null},{"name":"EL BARRANCO","address":null,"city":"REGADEROS","state":null,"postal":"\u00c1rea total: 35","phone":"","web":"","lat":4.4533,"lng":null},{"name":"EL BARRO","address":null,"city":"ZABALETAS","state":null,"postal":"\u00c1rea total: 1.5","phone":"","web":"","lat":3.74,"lng":null},{"name":"EL BOHEMIO","address":null,"city":"SAN PEDRO","state":null,"postal":"\u00c1rea total: 0.64","phone":"","web":"","lat":0,"lng":null},{"name":"EL BOHIO","address":null,"city":"LLANO BAJO","state":null,"postal":"\u00c1rea total: 1.5","phone":"","web":"","lat":36,"lng":null},{"name":"EL BOHIO","address":null,"city":"LLANO BAJO","state":null,"postal":"\u00c1rea total: 1.5","phone":"","web":"","lat":4.546171,"lng":null},{"name":"EL BOHIO","address":null,"city":"LLANO BAJO","state":null,"postal":"\u00c1rea total: 1.5","phone":"","web":"","lat":36,"lng":null},{"name":"EL BOHIO","address":null,"city":"LLANO BAJO","state":null,"postal":"\u00c1rea total: 1.5","phone":"","web":"","lat":36,"lng":null},{"name":"EL BOHIO","address":null,"city":"LLANO BAJO","state":null,"postal":"\u00c1rea total: 1.5","phone":"","web":"","lat":36,"lng":null},{"name":"EL BURRITO","address":null,"city":"VILLA PAZ","state":"EL BURRITO","postal":"\u00c1rea total: 1.28","phone":"","web":"","lat":0,"lng":null},{"name":"EL CAIMO","address":null,"city":"LAS DEILCIAS","state":"PARTE ALTA","postal":"\u00c1rea total: 0.02","phone":"","web":"","lat":0,"lng":null},{"name":"EL CAIMO","address":null,"city":"QUINAMAYO","state":null,"postal":"\u00c1rea total: 10500","phone":"","web":"","lat":0,"lng":null},{"name":"EL CALAMAR","address":null,"city":"LA PALMA","state":null,"postal":"\u00c1rea total: 2.5","phone":"","web":"","lat":0,"lng":null},{"name":"EL CARMELO","address":null,"city":"BAJO PALOMINO","state":null,"postal":"\u00c1rea total: 0.81","phone":"","web":"","lat":0,"lng":null},{"name":"EL CARMEN","address":null,"city":"EL ORIENTE","state":null,"postal":"\u00c1rea total: 0.27","phone":"","web":"","lat":0,"lng":null},{"name":"EL CHUCHAL","address":null,"city":"QUINAMAYO","state":"AVISPAL","postal":"\u00c1rea total: 0.64","phone":"","web":"","lat":3.071516,"lng":null},{"name":"EL COCO","address":null,"city":"ZABALETAS","state":null,"postal":"\u00c1rea total: 4","phone":"","web":"","lat":3.74,"lng":null},{"name":"EL CONCHAL","address":null,"city":"REMOLINO","state":null,"postal":"\u00c1rea total: 1.92","phone":"","web":"","lat":0,"lng":null},{"name":"EL CONSUELO","address":null,"city":"TRES PUERTAS","state":null,"postal":"\u00c1rea total: 1","phone":"","web":"","lat":0,"lng":null},{"name":"EL CRUCERO","address":null,"city":"CHONTADURO","state":null,"postal":"\u00c1rea total: 1.6","phone":"","web":"","lat":0,"lng":null},{"name":"EL CRUCERO","address":null,"city":"LA  PALMA","state":null,"postal":"\u00c1rea total: 56","phone":"","web":"","lat":4.698844,"lng":null},{"name":"EL CRUCERO","address":null,"city":"LA  PALMA","state":null,"postal":"\u00c1rea total: 56","phone":"","web":"","lat":4.698844,"lng":null},{"name":"EL DANUBIO","address":null,"city":"SAN LUIS","state":null,"postal":"\u00c1rea total: 1","phone":"","web":"","lat":0,"lng":null},{"name":"EL DANUBIO","address":null,"city":"LA COREA","state":null,"postal":"\u00c1rea total: 2.5","phone":"","web":"","lat":0,"lng":null},{"name":"EL DEBER","address":null,"city":"CORCEGA","state":null,"postal":"\u00c1rea total: 0.5","phone":"","web":"","lat":0,"lng":null},{"name":"EL DE LUCA","address":null,"city":"ZABALETAS","state":null,"postal":"\u00c1rea total: 4","phone":"","web":"","lat":3.74,"lng":null},{"name":"EL DESCANSO","address":null,"city":null,"state":null,"postal":"\u00c1rea total: 1.28","phone":"","web":"","lat":4.159231,"lng":null},{"name":"EL DESCANSO","address":null,"city":null,"state":null,"postal":"\u00c1rea total: 1.28","phone":"","web":"","lat":4.159231,"lng":null},{"name":"EL DESCANSO","address":null,"city":null,"state":null,"postal":"\u00c1rea total: 1.28","phone":"","web":"","lat":4.159231,"lng":null},{"name":"EL DESCANSO","address":null,"city":null,"state":null,"postal":"\u00c1rea total: 1.28","phone":"","web":"","lat":4.159231,"lng":null},{"name":"EL DESCANSO","address":null,"city":null,"state":null,"postal":"\u00c1rea total: 1.28","phone":"","web":"","lat":4.159231,"lng":null},{"name":"EL DESCANSO","address":null,"city":null,"state":null,"postal":"\u00c1rea total: 1.28","phone":"","web":"","lat":4.159231,"lng":null},{"name":"EL DESCANSO","address":null,"city":null,"state":null,"postal":"\u00c1rea total: 1.28","phone":"","web":"","lat":4.159231,"lng":null},{"name":"EL DESCANSO","address":null,"city":"CARRISALES","state":"0","postal":"\u00c1rea total: 0.04","phone":"","web":"","lat":0,"lng":null},{"name":"EL DESCANSO","address":null,"city":null,"state":null,"postal":"\u00c1rea total: 1.28","phone":"","web":"","lat":4.159231,"lng":null},{"name":"EL DESCANSO","address":null,"city":null,"state":null,"postal":"\u00c1rea total: 1.28","phone":"","web":"","lat":4.159231,"lng":null},{"name":"EL DESCANSO","address":null,"city":null,"state":null,"postal":"\u00c1rea total: 1.28","phone":"","web":"","lat":4.159231,"lng":null},{"name":"EL DESCANSO","address":null,"city":null,"state":null,"postal":"\u00c1rea total: 1.28","phone":"","web":"","lat":4.159231,"lng":null},{"name":"EL DESCANSO","address":null,"city":null,"state":null,"postal":"\u00c1rea total: 1.28","phone":"","web":"","lat":4.159231,"lng":null},{"name":"EL DESNCAZO","address":null,"city":"ZANJON DE PIEDRA","state":null,"postal":"\u00c1rea total: 0.6","phone":"","web":"","lat":0,"lng":null},{"name":"EL DIAMANTE","address":null,"city":"CA\u00d1ADA HONDA","state":null,"postal":"\u00c1rea total: 20","phone":"","web":"","lat":0,"lng":null},{"name":"EL ENCANTO","address":null,"city":"LA CRISTALINA ALTA","state":"EL ROCIO - LA CAUCANA","postal":"\u00c1rea total: 15","phone":"","web":"","lat":0,"lng":null},{"name":"EL ENIN","address":null,"city":"LA HERRADURA","state":null,"postal":"\u00c1rea total: 0.32","phone":"","web":"","lat":3.536863,"lng":null},{"name":"EL ESFUERZO","address":null,"city":"CHAGRES","state":"SARDINERO","postal":"\u00c1rea total: 0.32","phone":"","web":"","lat":0,"lng":null},{"name":"EL ESTABLO","address":null,"city":"GUACANAL","state":null,"postal":"\u00c1rea total: 0.64","phone":"","web":"","lat":3.40933,"lng":null},{"name":"ELICENIA","address":null,"city":"CAMPO ALEGRE","state":null,"postal":"\u00c1rea total: 0.64","phone":"","web":"","lat":0,"lng":null},{"name":"EL JACINTO","address":null,"city":"SAN JOSE","state":null,"postal":"\u00c1rea total: 1","phone":"","web":"","lat":0,"lng":null},{"name":"EL JAGUEY","address":null,"city":"GUARE","state":null,"postal":"\u00c1rea total: 0.3","phone":"","web":"","lat":0,"lng":null},{"name":"EL JARDIN","address":null,"city":"EL ORIENTE","state":null,"postal":"\u00c1rea total: 0.16","phone":"","web":"","lat":0,"lng":null},{"name":"EL JARDIN","address":null,"city":"ZU\u00d1IGA","state":"ZU\u00d1IGA","postal":"\u00c1rea total: 8.9","phone":"","web":"","lat":0,"lng":null},{"name":"EL JAZMIN","address":null,"city":"EL MESTIZAL","state":null,"postal":"\u00c1rea total: 3.5","phone":"","web":"","lat":4.14307,"lng":null},{"name":"EL LAGO","address":null,"city":"VENECIA","state":"EL LAGO","postal":"\u00c1rea total: 6","phone":"","web":"","lat":0,"lng":null},{"name":"EL LEON","address":null,"city":"VILLA PAZ","state":"EL LEON","postal":"\u00c1rea total: 0.32","phone":"","web":"","lat":0,"lng":null},{"name":"EL LEON","address":null,"city":"VILLA PAZ","state":"EL LEON","postal":"\u00c1rea total: 0.64","phone":"","web":"","lat":0,"lng":null},{"name":"EL LIBANO","address":null,"city":"PROVIDENCIA","state":null,"postal":"\u00c1rea total: 4.16","phone":"","web":"","lat":3.394412,"lng":null},{"name":"EL MANANTIAL","address":null,"city":"EL BOSQUE","state":null,"postal":"\u00c1rea total: 6.5","phone":"","web":"","lat":0,"lng":null},{"name":"EL MANSO","address":null,"city":"ZABALETAS","state":null,"postal":"\u00c1rea total: 1","phone":"","web":"","lat":3.74,"lng":null},{"name":"EL MARIPOSARIO","address":null,"city":"SANTA ELENA","state":"AMAIMITO","postal":"\u00c1rea total: 3.5","phone":"","web":"","lat":0,"lng":null},{"name":"EL MIRADOR","address":null,"city":null,"state":null,"postal":"\u00c1rea total: 0.5","phone":"","web":"","lat":0,"lng":null},{"name":"EL MIRADOR","address":null,"city":"BUENOS AIRES","state":null,"postal":"\u00c1rea total: 3","phone":"","web":"","lat":0,"lng":null},{"name":"EL MORROCO","address":null,"city":"COLA DE GURRE","state":null,"postal":"\u00c1rea total: 1","phone":"","web":"","lat":0,"lng":null},{"name":"EL MORROCO","address":null,"city":"COLA DE GURRE","state":null,"postal":"\u00c1rea total: 1","phone":"","web":"","lat":0,"lng":null},{"name":"EL NACEDERO","address":null,"city":"LAS DELICIAS","state":"PARTE MEDIA, POR LA ESCUELA","postal":"\u00c1rea total: 0.15","phone":"","web":"","lat":0,"lng":null},{"name":"EL OASIS","address":null,"city":"LA DESPENSA","state":null,"postal":"\u00c1rea total: 1","phone":"","web":"","lat":0,"lng":null},{"name":"EL OASIS","address":null,"city":"LA DESPENSA","state":null,"postal":"\u00c1rea total: 6","phone":"","web":"","lat":0,"lng":null},{"name":"EL ORIENTE","address":null,"city":"LA MELVA","state":"LA MELVA","postal":"\u00c1rea total: 20","phone":"","web":"","lat":4.2591,"lng":null},{"name":"EL PALMAR","address":null,"city":"MARTINDOZA","state":null,"postal":"\u00c1rea total: 0.7","phone":"","web":"","lat":0,"lng":null},{"name":"EL PALMAR","address":null,"city":"MARTINDOZA","state":null,"postal":"\u00c1rea total: 0.5","phone":"","web":"","lat":0,"lng":null},{"name":"EL PALMAR","address":null,"city":"TAMBORAL","state":"ZONA RURAL PLANA","postal":"\u00c1rea total: 0.32","phone":"","web":"","lat":0,"lng":null},{"name":"EL PALMAR","address":null,"city":"MARTINDOZA","state":null,"postal":"\u00c1rea total: 0.7","phone":"","web":"","lat":0,"lng":null},{"name":"EL PALMAR","address":null,"city":"MARTINDOZA","state":null,"postal":"\u00c1rea total: 0.7","phone":"","web":"","lat":0,"lng":null},{"name":"EL PALMAR","address":null,"city":"MARTINDOZA","state":null,"postal":"\u00c1rea total: 0.7","phone":"","web":"","lat":0,"lng":null},{"name":"EL PALMAR","address":null,"city":"MARTINDOZA","state":null,"postal":"\u00c1rea total: 0.7","phone":"","web":"","lat":0,"lng":null},{"name":"EL PALMAR","address":null,"city":"MARTINDOZA","state":null,"postal":"\u00c1rea total: 0.7","phone":"","web":"","lat":0,"lng":null},{"name":"EL PALMAR","address":null,"city":"CORREGIMIENTO EL PALMAR","state":null,"postal":"\u00c1rea total: 0.01","phone":"","web":"","lat":0,"lng":null},{"name":"EL PAPAYO","address":null,"city":"VILLAHERMOSA","state":"KM 41","postal":"\u00c1rea total: 0.05","phone":"","web":"","lat":0,"lng":null},{"name":"EL PARAISO","address":null,"city":"LA MANSION","state":null,"postal":"\u00c1rea total: 20","phone":"","web":"","lat":0,"lng":null},{"name":"EL PARAISO","address":null,"city":"HIGUERONCITO","state":null,"postal":"\u00c1rea total: 5.6","phone":"","web":"","lat":0,"lng":null},{"name":"EL PARAISO","address":null,"city":"REGADEROS","state":null,"postal":"\u00c1rea total: 7","phone":"","web":"","lat":4.4738,"lng":null},{"name":"EL PARAISO","address":null,"city":"MONTE HERMOSO","state":null,"postal":"\u00c1rea total: 0.96","phone":"","web":"","lat":4.164339,"lng":null},{"name":"EL PARAISO","address":null,"city":"AGUA MONA","state":null,"postal":"\u00c1rea total: 1.28","phone":"","web":"","lat":0,"lng":null},{"name":"EL PARAISO","address":null,"city":"AGUA LINDA","state":null,"postal":"\u00c1rea total: 1.28","phone":"","web":"","lat":0,"lng":null},{"name":"EL PEDREGAL","address":null,"city":"AMAIMITO","state":null,"postal":"\u00c1rea total: 1","phone":"","web":"","lat":3.622499,"lng":null},{"name":"EL PERFECTO SOCORRO","address":null,"city":"SAN FRANCISCO","state":null,"postal":"\u00c1rea total: 0.16","phone":"","web":"","lat":0,"lng":null},{"name":"EL PESEBRE","address":null,"city":"SANTA ELENA","state":"LOS ALPES","postal":"\u00c1rea total: 1","phone":"","web":"","lat":0,"lng":null},{"name":"EL PI\u00d1AL","address":null,"city":"CACHIMBAL","state":null,"postal":"\u00c1rea total: 3","phone":"","web":"","lat":0,"lng":null},{"name":"EL PITAL","address":null,"city":"GUAVINEROS-MARTINDOZA","state":"PASANDO LA PRIMERA CANAL","postal":"\u00c1rea total: 3","phone":"","web":"","lat":4.5425,"lng":null},{"name":"EL PLATANAL","address":null,"city":"EL MESTIZAL","state":null,"postal":"\u00c1rea total: 0.5","phone":"","web":"","lat":4.23146,"lng":null},{"name":"EL PORVENIR","address":null,"city":"ZANJON DE PIEDRAS","state":null,"postal":"\u00c1rea total: 2.5","phone":"","web":"","lat":0.416782,"lng":null},{"name":"EL PORVENIR","address":null,"city":"SAN LUIS","state":"SAN LUIS","postal":"\u00c1rea total: 6","phone":"","web":"","lat":4.911189,"lng":null},{"name":"EL PORVENIR","address":null,"city":"SANTA RITA","state":"CENTRAL","postal":"\u00c1rea total: 3","phone":"","web":"","lat":3.55319,"lng":null},{"name":"EL PORVENIR","address":null,"city":"LA AGUADA 2","state":null,"postal":"\u00c1rea total: 5.5","phone":"","web":"","lat":0,"lng":null},{"name":"EL PORVENIR","address":null,"city":"BAJO CONGAL","state":"BAJO CONGAL","postal":"\u00c1rea total: 7","phone":"","web":"","lat":0,"lng":null},{"name":"EL PORVENIR","address":null,"city":"ZANJON DE PIEDRAS","state":null,"postal":"\u00c1rea total: 2.5","phone":"","web":"","lat":0.416782,"lng":null},{"name":"EL PORVENIR","address":null,"city":"SAN JOSE","state":"EL CHIRCAL","postal":"\u00c1rea total: 0.22","phone":"","web":"","lat":0,"lng":null},{"name":"EL PRADO","address":null,"city":"LA DEBORA","state":null,"postal":"\u00c1rea total: 5","phone":"","web":"","lat":0,"lng":null},{"name":"EL PROGRESO","address":null,"city":"ROZO","state":null,"postal":"\u00c1rea total: 0.64","phone":"","web":"","lat":0,"lng":null},{"name":"EL RECREO","address":null,"city":"CORCEGA","state":null,"postal":"\u00c1rea total: 1","phone":"","web":"","lat":4.53504,"lng":null},{"name":"EL RECUERDO","address":null,"city":"HIGUERONCITO","state":null,"postal":"\u00c1rea total: 0.83","phone":"","web":"","lat":0,"lng":null},{"name":"EL RECUERDO","address":null,"city":null,"state":null,"postal":"\u00c1rea total: 0.63","phone":"","web":"","lat":4.519231,"lng":null},{"name":"EL RECUERDO","address":null,"city":"MADRE VIEJA","state":"BAJO","postal":"\u00c1rea total: 0.25","phone":"","web":"","lat":0,"lng":null},{"name":"EL RECUERDO","address":null,"city":"MONTE HERMOSO","state":null,"postal":"\u00c1rea total: 0.64","phone":"","web":"","lat":0,"lng":null},{"name":"EL REFLEJO","address":null,"city":"CEDRALES","state":null,"postal":"\u00c1rea total: 1","phone":"","web":"","lat":0,"lng":null},{"name":"EL REGADERO","address":null,"city":null,"state":"HIGUERONSITO","postal":"\u00c1rea total: 1","phone":"","web":"","lat":0,"lng":null},{"name":"EL REGALO","address":null,"city":"LA MELVA","state":"LA MELVA","postal":"\u00c1rea total: 3.85","phone":"","web":"","lat":4.2259,"lng":null},{"name":"EL REPOSO","address":null,"city":"PEDRO SANCHEZ","state":null,"postal":"\u00c1rea total: 6.5","phone":"","web":"","lat":0,"lng":null},{"name":"EL RESGUARDO","address":null,"city":"LA FRESNEDA","state":null,"postal":"\u00c1rea total: 1","phone":"","web":"","lat":3.762055,"lng":null},{"name":"EL RETIRO","address":null,"city":"BUEN VIVIR","state":null,"postal":"\u00c1rea total: 2","phone":"","web":"","lat":0,"lng":null},{"name":"EL RETIRO","address":null,"city":"LA GUAIRA","state":null,"postal":"\u00c1rea total: 1","phone":"","web":"","lat":0,"lng":null},{"name":"EL ROSAL","address":null,"city":"MORRO PLANCHO","state":null,"postal":"\u00c1rea total: 2.5","phone":"","web":"","lat":0,"lng":null},{"name":"EL RUBY","address":null,"city":"EL ORIENTE","state":null,"postal":"\u00c1rea total: 0.25","phone":"","web":"","lat":0,"lng":null},{"name":"EL SAMAN","address":null,"city":"EL REMOLINO","state":null,"postal":"\u00c1rea total: 1.3","phone":"","web":"","lat":4.47625,"lng":null},{"name":"EL SILENCIO","address":null,"city":"RIO BRAVO","state":null,"postal":"\u00c1rea total: 10","phone":"","web":"","lat":3.82,"lng":null},{"name":"EL SILENCIO","address":null,"city":"EL JARDIN","state":"EL JARDIN","postal":"\u00c1rea total: 16","phone":"","web":"","lat":0,"lng":null},{"name":"EL TESORO","address":null,"city":"ALTA CRISTALINA","state":null,"postal":"\u00c1rea total: 22","phone":"","web":"","lat":0,"lng":null},{"name":"EL TESORO","address":null,"city":"ALTA CRISTALINA","state":null,"postal":"\u00c1rea total: 22","phone":"","web":"","lat":0,"lng":null},{"name":"EL TOPACIO","address":null,"city":"LA MILAGROSA","state":"SANTA HELENA","postal":"\u00c1rea total: 0.64","phone":"","web":"","lat":0,"lng":null},{"name":"EL TOPACIO","address":null,"city":"CAMPO ALEGRE","state":null,"postal":"\u00c1rea total: 0.14","phone":"","web":"","lat":0,"lng":null},{"name":"EL TOPACIO","address":null,"city":"LA MELVA","state":"LA MELVA","postal":"\u00c1rea total: 7.7","phone":"","web":"","lat":0,"lng":null},{"name":"EL TOPACIO","address":null,"city":"CAMPO ALEGRE","state":null,"postal":"\u00c1rea total: 0.14","phone":"","web":"","lat":0,"lng":null},{"name":"EL TREBOL","address":null,"city":"EL BRILLANTE","state":null,"postal":"\u00c1rea total: 8","phone":"","web":"","lat":4.753918,"lng":null},{"name":"EL VERGEL","address":null,"city":"EL MU\u00d1ECO","state":"0","postal":"\u00c1rea total: 0.08","phone":"","web":"","lat":0,"lng":null},{"name":"EL VERGEL","address":null,"city":null,"state":null,"postal":"\u00c1rea total: 0.64","phone":"","web":"","lat":4.50939,"lng":null},{"name":"EL VERGEL","address":null,"city":null,"state":null,"postal":"\u00c1rea total: 1.28","phone":"","web":"","lat":0,"lng":null},{"name":"EL VERGEL","address":null,"city":"LA VIGOROSA","state":null,"postal":"\u00c1rea total: 1.5","phone":"","web":"","lat":0,"lng":null},{"name":"ESCOBAL","address":null,"city":"EL LIMONAR","state":null,"postal":"\u00c1rea total: 0.01","phone":"","web":"","lat":0,"lng":null},{"name":"ESLABON","address":null,"city":"ZABALETAS","state":null,"postal":"\u00c1rea total: 2","phone":"","web":"","lat":3.74,"lng":null},{"name":"FILADELFIA","address":null,"city":"LA DEVORA","state":null,"postal":"\u00c1rea total: 6","phone":"","web":"","lat":4.1232,"lng":null},{"name":"FINCA KM 43","address":null,"city":"VILLAHERMOSA","state":"KM 43","postal":"\u00c1rea total: 0.02","phone":"","web":"","lat":0,"lng":null},{"name":"FINCA LA ESTRELLA","address":null,"city":"PUERTO VELO","state":null,"postal":"\u00c1rea total: 6","phone":"","web":"","lat":0,"lng":null},{"name":"FINCA LA ESTRELLA","address":null,"city":"PUERTO VELO","state":null,"postal":"\u00c1rea total: 6","phone":"","web":"","lat":0,"lng":null},{"name":"FINCA LA ESTRELLA","address":null,"city":"PUERTO VELO","state":null,"postal":"\u00c1rea total: 6","phone":"","web":"","lat":0,"lng":null},{"name":"FINCA LA ESTRELLA","address":null,"city":"PUERTO VELO","state":null,"postal":"\u00c1rea total: 6","phone":"","web":"","lat":0,"lng":null},{"name":"FINCA PIEDRAS","address":null,"city":"SANJON DE PIEDRAS","state":null,"postal":"\u00c1rea total: 1.28","phone":"","web":"","lat":0,"lng":null},{"name":"FINCA PIEDRAS","address":null,"city":"SANJON DE PIEDRAS","state":null,"postal":"\u00c1rea total: 1.28","phone":"","web":"","lat":0,"lng":null},{"name":"FINCA PIEDRAS","address":null,"city":"SANJON DE PIEDRAS","state":null,"postal":"\u00c1rea total: 1.28","phone":"","web":"","lat":0,"lng":null},{"name":"FINCA PIEDRAS","address":null,"city":"SANJON DE PIEDRAS","state":null,"postal":"\u00c1rea total: 1.28","phone":"","web":"","lat":0,"lng":null},{"name":"FINCA PIEDRAS","address":null,"city":"SANJON DE PIEDRAS","state":null,"postal":"\u00c1rea total: 1.28","phone":"","web":"","lat":0,"lng":null},{"name":"FINCA PIEDRAS","address":null,"city":"SANJON DE PIEDRAS","state":null,"postal":"\u00c1rea total: 1.28","phone":"","web":"","lat":0,"lng":null},{"name":"FINCA PIEDRAS","address":null,"city":"SANJON DE PIEDRAS","state":null,"postal":"\u00c1rea total: 1.28","phone":"","web":"","lat":0,"lng":null},{"name":"FINCA PIEDRAS","address":null,"city":"SANJON DE PIEDRAS","state":null,"postal":"\u00c1rea total: 1.28","phone":"","web":"","lat":0,"lng":null},{"name":"FINCA PIEDRAS","address":null,"city":"SANJON DE PIEDRAS","state":null,"postal":"\u00c1rea total: 1.28","phone":"","web":"","lat":0,"lng":null},{"name":"FINCA PIEDRAS","address":null,"city":"SANJON DE PIEDRAS","state":null,"postal":"\u00c1rea total: 1.28","phone":"","web":"","lat":0,"lng":null},{"name":"FINCA PIEDRAS","address":null,"city":"SANJON DE PIEDRAS","state":null,"postal":"\u00c1rea total: 1.28","phone":"","web":"","lat":0,"lng":null},{"name":"FINCA PIEDRAS","address":null,"city":"SANJON DE PIEDRAS","state":null,"postal":"\u00c1rea total: 1.28","phone":"","web":"","lat":0,"lng":null},{"name":"FINCA PIEDRAS","address":null,"city":"SANJON DE PIEDRAS","state":null,"postal":"\u00c1rea total: 1.28","phone":"","web":"","lat":0,"lng":null},{"name":"FINCA PIEDRAS","address":null,"city":"SANJON DE PIEDRAS","state":null,"postal":"\u00c1rea total: 1.28","phone":"","web":"","lat":0,"lng":null},{"name":"GRAMAS CRISTOREY","address":null,"city":"SANTA RITA","state":null,"postal":"\u00c1rea total: 1.5","phone":"","web":"","lat":0.425751,"lng":null},{"name":"GRIJALVA","address":null,"city":"PLAYA AMARILLA","state":"LA LAGUNA DE GUARINO","postal":"\u00c1rea total: 1.6","phone":"","web":"","lat":3.13,"lng":null},{"name":"GUANABANAL","address":null,"city":"ZABALETAS","state":null,"postal":"\u00c1rea total: 1","phone":"","web":"","lat":3.74,"lng":null},{"name":"GUSTAVO","address":null,"city":"SAN FERNANDO","state":null,"postal":"\u00c1rea total: 0.8","phone":"","web":"","lat":0,"lng":null},{"name":"JG","address":null,"city":"LA HERRADURA","state":null,"postal":"\u00c1rea total: 0.75","phone":"","web":"","lat":3.653434,"lng":null},{"name":"JIMENEZ","address":null,"city":"ZABALETAS","state":null,"postal":"\u00c1rea total: 1","phone":"","web":"","lat":3.74,"lng":null},{"name":"LA ALBANIA","address":null,"city":"LAS MIRLAS","state":null,"postal":"\u00c1rea total: 18","phone":"","web":"","lat":0,"lng":null},{"name":"LA ALSACIA","address":null,"city":"CAMPOALEGRE","state":"TRES TIENDAS","postal":"\u00c1rea total: 1","phone":"","web":"","lat":0,"lng":null},{"name":"LA AURORA","address":null,"city":"BOSQUE BAJO","state":"BOSQUE BAJO","postal":"\u00c1rea total: 18.5","phone":"","web":"","lat":0,"lng":null},{"name":"LA AURORA","address":null,"city":"FRESNEDA","state":null,"postal":"\u00c1rea total: 0.64","phone":"","web":"","lat":0,"lng":null},{"name":"LA AURORA","address":null,"city":"VENECIA","state":"LA CUMBRE BAJA","postal":"\u00c1rea total: 3.02","phone":"","web":"","lat":0,"lng":null},{"name":"LA BERNARDINA","address":null,"city":"MESTIZAL","state":null,"postal":"\u00c1rea total: 1","phone":"","web":"","lat":4.225425,"lng":null},{"name":"LA BOLSA","address":null,"city":"EL HOBO","state":null,"postal":"\u00c1rea total: 1","phone":"","web":"","lat":0,"lng":null},{"name":"LA BONITA","address":null,"city":"GUABAS","state":"LA BONITA","postal":"\u00c1rea total: 2.01","phone":"","web":"","lat":0,"lng":null},{"name":"LA CAMPESINA","address":null,"city":"HIGUERONCITO","state":null,"postal":"\u00c1rea total: 0.7","phone":"","web":"","lat":3.55321,"lng":null},{"name":"LA CAPILLA","address":null,"city":"LA ESTRELLA","state":"LA ESTRELLA","postal":"\u00c1rea total: 22.4","phone":"","web":"","lat":0,"lng":null},{"name":"LA CARLOTA","address":null,"city":"ZABALETA","state":"RURAL","postal":"\u00c1rea total: 0.64","phone":"","web":"","lat":0,"lng":null},{"name":"LA CARMELITA","address":null,"city":"SABANAZO","state":"PARTE ALTA","postal":"\u00c1rea total: 2","phone":"","web":"","lat":4.3558,"lng":null},{"name":"LA CARTUJA","address":null,"city":"CAMPO ALEGRE","state":"0","postal":"\u00c1rea total: 0.03","phone":"","web":"","lat":0.010492,"lng":null},{"name":"LA CASCADA","address":null,"city":"MANZANILLO","state":"MANZANILLO","postal":"\u00c1rea total: 23","phone":"","web":"","lat":0,"lng":null},{"name":"LA CASTILLA","address":null,"city":"LA REGINA","state":null,"postal":"\u00c1rea total: 0.3","phone":"","web":"","lat":0,"lng":null},{"name":"LA CECILIA","address":null,"city":"EL OVERO","state":null,"postal":"\u00c1rea total: 1.2","phone":"","web":"","lat":0,"lng":null},{"name":"LA CECILIA","address":null,"city":"BAJO CONGAL","state":"BAJO CONGAL","postal":"\u00c1rea total: 12.8","phone":"","web":"","lat":0,"lng":null},{"name":"LA CENEIDA","address":null,"city":"MONTEHERMOSO","state":"VIA CAMPOALEGRE","postal":"\u00c1rea total: 0.5","phone":"","web":"","lat":0,"lng":null},{"name":"LA CHIQUITA","address":null,"city":"CIMITARRA","state":"CIMITARRA","postal":"\u00c1rea total: 2.9","phone":"","web":"","lat":0,"lng":null},{"name":"LA CHIQUITA","address":null,"city":"CIMITARRA","state":"CIMITARRA","postal":"\u00c1rea total: 2.9","phone":"","web":"","lat":0,"lng":null},{"name":"LA CHIROZA","address":null,"city":"AGUALINDA","state":"AGUALINDA","postal":"\u00c1rea total: 1.92","phone":"","web":"","lat":0.349542,"lng":null},{"name":"LA COLONIA","address":null,"city":"LA COLONIA","state":"VIA SAN PACHO","postal":"\u00c1rea total: 1.28","phone":"","web":"","lat":0,"lng":null},{"name":"LA CORONA","address":null,"city":"CALIMITA","state":null,"postal":"\u00c1rea total: 10","phone":"","web":"","lat":3.82,"lng":null},{"name":"LA CRUZ","address":null,"city":"CAMPO ALEGRE","state":"LA CRUZ","postal":"\u00c1rea total: 0.54","phone":"","web":"","lat":0,"lng":null},{"name":"LA CRUZ","address":null,"city":"EL SALTO","state":null,"postal":"\u00c1rea total: 0.32","phone":"","web":"","lat":4.168333,"lng":null},{"name":"LA CUBA","address":null,"city":"LA PALMA","state":null,"postal":"\u00c1rea total: 0.43","phone":"","web":"","lat":0,"lng":null},{"name":"LA CUMBRE","address":null,"city":"LOMA GORDA","state":null,"postal":"\u00c1rea total: 2","phone":"","web":"","lat":0,"lng":null},{"name":"LA CUMBRE","address":null,"city":"LOMA GORDA","state":null,"postal":"\u00c1rea total: 2","phone":"","web":"","lat":0,"lng":null},{"name":"LA DATILERA","address":null,"city":"EL TRIUNFO","state":"PIERNA DE CHUCHA","postal":"\u00c1rea total: 0.64","phone":"","web":"","lat":3.36546,"lng":null},{"name":"LA DEBORA","address":null,"city":null,"state":null,"postal":"\u00c1rea total: 1.28","phone":"","web":"","lat":0,"lng":null},{"name":"LA DIAZ","address":null,"city":"ZABALETAS","state":"ZABALETAS","postal":"\u00c1rea total: 3.4","phone":"","web":"","lat":4.160715,"lng":null},{"name":"LA DILIA","address":null,"city":"CAMPO ALEGRE","state":null,"postal":"\u00c1rea total: 0.64","phone":"","web":"","lat":0,"lng":null},{"name":"LA DIVISA","address":null,"city":"MIRAFLORES","state":"MIRAFLORES","postal":"\u00c1rea total: 3.5","phone":"","web":"","lat":0,"lng":null},{"name":"LA ELIZA","address":null,"city":"MONTE HERMOSO","state":null,"postal":"\u00c1rea total: 0.58","phone":"","web":"","lat":0,"lng":null},{"name":"LA ESMERALDA","address":null,"city":null,"state":null,"postal":"\u00c1rea total: 18","phone":"","web":"","lat":0,"lng":null},{"name":"LA ESMERALDA","address":null,"city":"CALIMITA","state":null,"postal":"\u00c1rea total: 2.56","phone":"","web":"","lat":3.82,"lng":null},{"name":"LA ESMERALDA","address":null,"city":"LA MARIA","state":null,"postal":"\u00c1rea total: 2.5","phone":"","web":"","lat":3.680508,"lng":null},{"name":"LA ESMERALDA","address":null,"city":"ARENILLO","state":null,"postal":"\u00c1rea total: 14.7","phone":"","web":"","lat":0,"lng":null},{"name":"LA ESPERANZA","address":null,"city":"CHAPINERO","state":"CHAPINERO","postal":"\u00c1rea total: 2.2","phone":"","web":"","lat":0,"lng":null},{"name":"LA ESPERANZA","address":null,"city":"VILLA PAZ","state":"DIAGONAL AL PARQUE","postal":"\u00c1rea total: 0.64","phone":"","web":"","lat":0,"lng":null},{"name":"LA ESPERANZA","address":null,"city":"CASCO URBANO","state":null,"postal":"\u00c1rea total: 0.64","phone":"","web":"","lat":0,"lng":null},{"name":"LA ESPERANZA","address":null,"city":"CASCO URBANO","state":null,"postal":"\u00c1rea total: 0.64","phone":"","web":"","lat":0,"lng":null},{"name":"LA ESPERANZA","address":null,"city":"CASCO URBANO","state":null,"postal":"\u00c1rea total: 0.64","phone":"","web":"","lat":0,"lng":null},{"name":"LA ESPERANZA","address":null,"city":"LLANOGRANDE","state":null,"postal":"\u00c1rea total: 6","phone":"","web":"","lat":4.80474,"lng":null},{"name":"LA ESPERANZA","address":null,"city":"LAS CAMELIAS","state":null,"postal":"\u00c1rea total: 1","phone":"","web":"","lat":0,"lng":null},{"name":"LA ESPERANZA","address":null,"city":"VENUS","state":"LA DEBORA","postal":"\u00c1rea total: 4.5","phone":"","web":"","lat":0,"lng":null},{"name":"LA ESPERANZA","address":null,"city":"VENUS","state":"LA DEBORA","postal":"\u00c1rea total: 4.5","phone":"","web":"","lat":0,"lng":null},{"name":"LA ESPERANZA","address":null,"city":"VENUS","state":"LA DEBORA","postal":"\u00c1rea total: 4.5","phone":"","web":"","lat":0,"lng":null},{"name":"LA ESPERANZA","address":null,"city":"GUABAS","state":"LA BONITA","postal":"\u00c1rea total: 8","phone":"","web":"","lat":3.43722,"lng":null},{"name":"LA ESPERANZA","address":null,"city":"CORCEGA","state":null,"postal":"\u00c1rea total: 1","phone":"","web":"","lat":4.57562,"lng":null},{"name":"LA ESPERANZA","address":null,"city":"TIERRA BLANCA","state":null,"postal":"\u00c1rea total: 1","phone":"","web":"","lat":0,"lng":null},{"name":"LA ESPERANZA","address":null,"city":"CAMPO ALEGRE","state":null,"postal":"\u00c1rea total: 0.5","phone":"","web":"","lat":0,"lng":null},{"name":"LA ESPERANZA","address":null,"city":"CAMPOALEGRE","state":null,"postal":"\u00c1rea total: 1","phone":"","web":"","lat":0,"lng":null},{"name":"LA ESPERANZA","address":null,"city":"TABAQUITO","state":null,"postal":"\u00c1rea total: 1","phone":"","web":"","lat":3.13,"lng":null},{"name":"LA ESPERANZA","address":null,"city":"GUASIMO","state":null,"postal":"\u00c1rea total: 1","phone":"","web":"","lat":4.52,"lng":null},{"name":"LA ESPERANZA","address":null,"city":"VILLA HERMOSA","state":"KM 392","postal":"\u00c1rea total: 2","phone":"","web":"","lat":0,"lng":null},{"name":"LA ESPERANZA","address":null,"city":"ZABALETAS","state":null,"postal":"\u00c1rea total: 1","phone":"","web":"","lat":3.74,"lng":null},{"name":"LA ESPERANZA","address":null,"city":"EL RETIRO","state":"GUAYABITO","postal":"\u00c1rea total: 15","phone":"","web":"","lat":0,"lng":null},{"name":"LA ESPERANZA","address":null,"city":"EL RETIRO","state":"GUAYABITO","postal":"\u00c1rea total: 15","phone":"","web":"","lat":0,"lng":null},{"name":"LA ESPERANZA","address":null,"city":"EL RETIRO","state":"GUAYABITO","postal":"\u00c1rea total: 15","phone":"","web":"","lat":0,"lng":null},{"name":"LA ESPERANZA","address":null,"city":"EL RETIRO","state":"GUAYABITO","postal":"\u00c1rea total: 15","phone":"","web":"","lat":0,"lng":null},{"name":"LA ESPERANZA","address":null,"city":"EL RETIRO","state":"GUAYABITO","postal":"\u00c1rea total: 15","phone":"","web":"","lat":0,"lng":null},{"name":"LA ESPERANZA","address":null,"city":"SANTA MARIA","state":null,"postal":"\u00c1rea total: 1.92","phone":"","web":"","lat":0,"lng":null},{"name":"LA ESPERANZA","address":null,"city":"EL RETIRO","state":"GUAYABITO","postal":"\u00c1rea total: 15","phone":"","web":"","lat":0,"lng":null},{"name":"LA ESPERANZA","address":null,"city":"EL RETIRO","state":"GUAYABITO","postal":"\u00c1rea total: 15","phone":"","web":"","lat":0,"lng":null},{"name":"LA ESPERANZA","address":null,"city":"EL RETIRO","state":"GUAYABITO","postal":"\u00c1rea total: 15","phone":"","web":"","lat":0,"lng":null},{"name":"LA ESPERANZA","address":null,"city":"EL RETIRO","state":"GUAYABITO","postal":"\u00c1rea total: 15","phone":"","web":"","lat":0,"lng":null},{"name":"LA ESPERANZA","address":null,"city":"SANTA HELENA ALTA","state":"","postal":"\u00c1rea total: 27","phone":"","web":"","lat":4.905763,"lng":null},{"name":"LA ESPERANZA","address":null,"city":"EL RETIRO","state":"GUAYABITO","postal":"\u00c1rea total: 15","phone":"","web":"","lat":0,"lng":null},{"name":"LA ESPERANZA 1","address":null,"city":"PATIO BONITO","state":"CAJONES","postal":"\u00c1rea total: 3.08","phone":"","web":"","lat":0,"lng":null},{"name":"LA ESTEFANIA","address":null,"city":"SANJON DE PIEDRA","state":null,"postal":"\u00c1rea total: 0.5","phone":"","web":"","lat":4.192135,"lng":null},{"name":"LA ESTRELLA","address":null,"city":"CACHIMBAL","state":null,"postal":"\u00c1rea total: 0.64","phone":"","web":"","lat":3.809812,"lng":null},{"name":"LA ESTRELLA","address":null,"city":"CACHIMBAL","state":null,"postal":"\u00c1rea total: 0.64","phone":"","web":"","lat":3.809812,"lng":null},{"name":"LA ESTRELLA","address":null,"city":"LA POPALITA","state":null,"postal":"\u00c1rea total: 1.75","phone":"","web":"","lat":4.461611,"lng":null},{"name":"LA FLORESTA","address":null,"city":"LAS BRISAS","state":"SAN MARCOS","postal":"\u00c1rea total: 22.2","phone":"","web":"","lat":0,"lng":null},{"name":"LA FLORIDA","address":null,"city":"ESTRELLA BAJA","state":"LA LIBERTAD","postal":"\u00c1rea total: 8","phone":"","web":"","lat":0,"lng":null},{"name":"LA FLORIDA","address":null,"city":"CAMPO ALEGRE","state":null,"postal":"\u00c1rea total: 0.64","phone":"","web":"","lat":0,"lng":null},{"name":"LA FONDA","address":null,"city":"EL OVERO","state":null,"postal":"\u00c1rea total: 2.5","phone":"","web":"","lat":0,"lng":null},{"name":"LA FORTUNA","address":null,"city":"QUINAMAYO","state":"TABAQUITO","postal":"\u00c1rea total: 1.28","phone":"","web":"","lat":3.16,"lng":null},{"name":"LA FORTUNA","address":null,"city":"QUINAMAYO","state":"PASO ANCHO","postal":"\u00c1rea total: 0.79","phone":"","web":"","lat":0,"lng":null},{"name":"LA FRESNEDA","address":null,"city":"AGUAMONA","state":null,"postal":"\u00c1rea total: 3","phone":"","web":"","lat":3.83,"lng":null},{"name":"LA GAVIOTA","address":null,"city":"LA DEVORA","state":null,"postal":"\u00c1rea total: 10","phone":"","web":"","lat":4.1232,"lng":null},{"name":"LA GRANJA","address":null,"city":"SANTA RITA","state":null,"postal":"\u00c1rea total: 1","phone":"","web":"","lat":0.425751,"lng":null},{"name":"LA GREGORIA","address":null,"city":"CULEBRAS","state":null,"postal":"\u00c1rea total: 3.8","phone":"","web":"","lat":4.23978,"lng":null},{"name":"LA GUACA","address":null,"city":"LA MELVA","state":"LA MELVA","postal":"\u00c1rea total: 1.7","phone":"","web":"","lat":4.2448,"lng":null},{"name":"LA HERMITA","address":null,"city":"LA CALLETONA","state":null,"postal":"\u00c1rea total: 1","phone":"","web":"","lat":0,"lng":null},{"name":"LA ISLA","address":null,"city":"SAN PABLO","state":null,"postal":"\u00c1rea total: 1","phone":"","web":"","lat":0,"lng":null},{"name":"LA ISLA","address":null,"city":"LA ISLA","state":null,"postal":"\u00c1rea total: 1.5","phone":"","web":"","lat":0,"lng":null},{"name":"LA ISLA","address":null,"city":"QUINAMAYO","state":"EL AVISPAL","postal":"\u00c1rea total: 0.8","phone":"","web":"","lat":3.070163,"lng":null},{"name":"LA JOSEFA","address":null,"city":"HIGUERONCITO","state":"ZONA AGRICOLA","postal":"\u00c1rea total: 1.6","phone":"","web":"","lat":0,"lng":null},{"name":"LA JULIA","address":null,"city":"SAN ISIDRO","state":"RURAL","postal":"\u00c1rea total: 1","phone":"","web":"","lat":0,"lng":null},{"name":"LA LINDA","address":null,"city":"LA DEBORA","state":"EL LAGO","postal":"\u00c1rea total: 4.5","phone":"","web":"","lat":0,"lng":null},{"name":"LA LINDA","address":null,"city":"EL PACIFICO","state":null,"postal":"\u00c1rea total: 0.25","phone":"","web":"","lat":0,"lng":null},{"name":"LA LINDA","address":null,"city":"LA DEBORA","state":"EL LAGO","postal":"\u00c1rea total: 4.5","phone":"","web":"","lat":0,"lng":null},{"name":"LA LINDA","address":null,"city":"LA DEBORA","state":"EL LAGO","postal":"\u00c1rea total: 4.5","phone":"","web":"","lat":0,"lng":null},{"name":"LA LOMA","address":null,"city":"BUENOS AIRES","state":"LA LOMA","postal":"\u00c1rea total: 0.01","phone":"","web":"","lat":0,"lng":null},{"name":"LA LUCELLY","address":null,"city":"LA GUAJIRA","state":null,"postal":"\u00c1rea total: 2","phone":"","web":"","lat":0,"lng":null},{"name":"LA LUCHA","address":null,"city":"SAN ANTONIO","state":null,"postal":"\u00c1rea total: 3","phone":"","web":"","lat":36.548595,"lng":null},{"name":"LA MANSION","address":null,"city":"LA MANSION","state":null,"postal":"\u00c1rea total: 8","phone":"","web":"","lat":0,"lng":null},{"name":"LA MANUELA","address":null,"city":"ZANJON DE PIEDRA","state":null,"postal":"\u00c1rea total: 0.6","phone":"","web":"","lat":0,"lng":null},{"name":"LA MANUELA","address":null,"city":"SAN LUIS","state":null,"postal":"\u00c1rea total: 1","phone":"","web":"","lat":0,"lng":null},{"name":"LA MARGARITA","address":null,"city":"LA SONORA","state":null,"postal":"\u00c1rea total: 6.63","phone":"","web":"","lat":0,"lng":null},{"name":"LA MARIA","address":null,"city":"GUARE","state":null,"postal":"\u00c1rea total: 0.6","phone":"","web":"","lat":0,"lng":null},{"name":"LA MARIA","address":null,"city":"SANTA ELENA","state":"EL FLORIDO","postal":"\u00c1rea total: 0.32","phone":"","web":"","lat":0,"lng":null},{"name":"LA MARIA","address":null,"city":"QUINAMAYO","state":"VIA VILAPAZ","postal":"\u00c1rea total: 0.18","phone":"","web":"","lat":0,"lng":null},{"name":"LA MELVITA","address":null,"city":"LA MELVA","state":"CASERIO","postal":"\u00c1rea total: 10.9","phone":"","web":"","lat":0,"lng":null},{"name":"LA MESETA","address":null,"city":"VILLAHERMOSA","state":"KMS 40","postal":"\u00c1rea total: 0.04","phone":"","web":"","lat":0,"lng":null},{"name":"LA MILLAN","address":null,"city":"ZABALETAS","state":"ZABALETAS","postal":"\u00c1rea total: 1.3","phone":"","web":"","lat":4.158835,"lng":null},{"name":"LA MORABIA","address":null,"city":"CAMPO ALEGRE","state":null,"postal":"\u00c1rea total: 0.64","phone":"","web":"","lat":0,"lng":null},{"name":"LA NAVIDAD","address":null,"city":"SANTA ELENA","state":"LOS ALPES","postal":"\u00c1rea total: 0.96","phone":"","web":"","lat":0,"lng":null},{"name":"LA PALMA","address":null,"city":"LOMA GORDA","state":null,"postal":"\u00c1rea total: 0.96","phone":"","web":"","lat":0,"lng":null},{"name":"LA PALMERA","address":null,"city":"SAN JOSE","state":"EL CHIRCAL","postal":"\u00c1rea total: 0.08","phone":"","web":"","lat":0,"lng":null},{"name":"LA PAMPA","address":null,"city":"SANTA RITA","state":"CALLEJON DE LA INSPECCION","postal":"\u00c1rea total: 0.64","phone":"","web":"","lat":0,"lng":null},{"name":"LA PAZ","address":null,"city":"GUACANAL","state":null,"postal":"\u00c1rea total: 0.12","phone":"","web":"","lat":3.40933,"lng":null},{"name":"LA PAZ","address":null,"city":"LA PAZ","state":"SAN ROQUE","postal":"\u00c1rea total: 1","phone":"","web":"","lat":0,"lng":null},{"name":"LA PEREZ","address":null,"city":"TAMBORAL","state":null,"postal":"\u00c1rea total: 0.18","phone":"","web":"","lat":0,"lng":null},{"name":"LA PEREZ","address":null,"city":"EL HOBO","state":null,"postal":"\u00c1rea total: 2.56","phone":"","web":"","lat":0,"lng":null},{"name":"LA PLAYA","address":null,"city":"PUERTO NUEVO","state":null,"postal":"\u00c1rea total: 7","phone":"","web":"","lat":0,"lng":null},{"name":"LA PODEROSA","address":null,"city":"EL PORTACHUELO","state":null,"postal":"\u00c1rea total: 0.64","phone":"","web":"","lat":0,"lng":null},{"name":"LA PONDEROSA","address":null,"city":"PUERTO NUEVO","state":null,"postal":"\u00c1rea total: 1","phone":"","web":"","lat":0,"lng":null},{"name":"LA PONDEROZA","address":null,"city":"EL PORTACHUELO","state":null,"postal":"\u00c1rea total: 1.28","phone":"","web":"","lat":0,"lng":null},{"name":"LA PORCELANA","address":null,"city":"PUERTO NUEVO","state":null,"postal":"\u00c1rea total: 0.68","phone":"","web":"","lat":0,"lng":null},{"name":"LA PORTADA","address":null,"city":"CHAGRES","state":"LA PORTADA","postal":"\u00c1rea total: 0.64","phone":"","web":"","lat":0,"lng":null},{"name":"LA PRIMAVERA","address":null,"city":"LAS HERMOSAS","state":null,"postal":"\u00c1rea total: 3","phone":"","web":"","lat":0,"lng":null},{"name":"LA PRIMAVERA","address":null,"city":"CAMPO ALEGRE","state":null,"postal":"\u00c1rea total: 2.5","phone":"","web":"","lat":0,"lng":null},{"name":"LA PRIMAVERA","address":null,"city":"KILOMETRO 26 CHIPRE","state":null,"postal":"\u00c1rea total: 0.64","phone":"","web":"","lat":0,"lng":null},{"name":"LA PROPIA","address":null,"city":"YOLOMBA","state":"POR LA POKER","postal":"\u00c1rea total: 2.5","phone":"","web":"","lat":0,"lng":null},{"name":"LA PROPIA","address":null,"city":"YOLOMBA","state":"POR LA POKER","postal":"\u00c1rea total: 2.5","phone":"","web":"","lat":0,"lng":null},{"name":"LA PRUDENCIA","address":null,"city":"EL HOBO","state":null,"postal":"\u00c1rea total: 0.23","phone":"","web":"","lat":0,"lng":null},{"name":"LA PUNTA","address":null,"city":"LLANO BAJO","state":null,"postal":"\u00c1rea total: 1.5","phone":"","web":"","lat":3.69,"lng":null},{"name":"LA RINCONADA","address":null,"city":"SAN JOSE","state":null,"postal":"\u00c1rea total: 0.23","phone":"","web":"","lat":0,"lng":null},{"name":"LA RIVERA","address":null,"city":"EL MESTIZAL","state":null,"postal":"\u00c1rea total: 0.02","phone":"","web":"","lat":4.237074,"lng":null},{"name":"LA RIVERA","address":null,"city":"EL MESTIZAL","state":null,"postal":"\u00c1rea total: 0.02","phone":"","web":"","lat":4.237074,"lng":null},{"name":"LA ROSALBA","address":null,"city":"SANTA HELENA - PIEDRITAS","state":"EL FILO","postal":"\u00c1rea total: 5","phone":"","web":"","lat":0,"lng":null},{"name":"LA ROSITA","address":null,"city":"GUASIMO","state":null,"postal":"\u00c1rea total: 1","phone":"","web":"","lat":4.52,"lng":null},{"name":"LAS BRISAS","address":null,"city":"VENUS","state":"VENUS ALTO","postal":"\u00c1rea total: 42","phone":"","web":"","lat":0,"lng":null},{"name":"LAS BRISAS","address":null,"city":"VENUS","state":"VENUS ALTO","postal":"\u00c1rea total: 42","phone":"","web":"","lat":0,"lng":null},{"name":"LAS CARMELITAS","address":null,"city":"RIO BRAVO","state":null,"postal":"\u00c1rea total: 10","phone":"","web":"","lat":3.83,"lng":null},{"name":"LAS DELICIAS","address":null,"city":"LINDERO","state":null,"postal":"\u00c1rea total: 0.64","phone":"","web":"","lat":0,"lng":null},{"name":"LAS DELICIAS","address":null,"city":"LINDERO","state":null,"postal":"\u00c1rea total: 0.64","phone":"","web":"","lat":0,"lng":null},{"name":"LAS DELICIAS","address":null,"city":"LINDERO","state":null,"postal":"\u00c1rea total: 0.64","phone":"","web":"","lat":0,"lng":null},{"name":"LA SELVA","address":null,"city":"REGADEROS","state":null,"postal":"\u00c1rea total: 13","phone":"","web":"","lat":3.3923,"lng":null},{"name":"LAS GARZAS","address":null,"city":"HIGUERONCITO","state":"","postal":"\u00c1rea total: 0.32","phone":"","web":"","lat":0,"lng":null},{"name":"LAS GARZAS","address":null,"city":"HIGUERONCITO","state":"","postal":"\u00c1rea total: 0.32","phone":"","web":"","lat":0,"lng":null},{"name":"LAS MA\u00d1ANITAS","address":null,"city":"TRES PUERTAS","state":null,"postal":"\u00c1rea total: 9","phone":"","web":"","lat":0,"lng":null},{"name":"LAS MARGARITAS","address":null,"city":"LA VIRGEN","state":null,"postal":"\u00c1rea total: 1.6","phone":"","web":"","lat":3.359583,"lng":null},{"name":"LAS MIRLAS","address":null,"city":"LA MELVA","state":"LA MELVA","postal":"\u00c1rea total: 1","phone":"","web":"","lat":4.2513,"lng":null},{"name":"LAS MIRLAS","address":null,"city":"SALDA\u00d1A","state":"SALDA\u00d1A","postal":"\u00c1rea total: 7.5","phone":"","web":"","lat":0,"lng":null},{"name":"LA SOLEDAD","address":null,"city":"CHONTADURO","state":null,"postal":"\u00c1rea total: 2","phone":"","web":"","lat":0,"lng":null},{"name":"LA SOLEDAD","address":null,"city":"VILLAHERMOSA","state":"BUENA VISTA, PARTE ALTA VEREDA.","postal":"\u00c1rea total: 0.03","phone":"","web":"","lat":0,"lng":null},{"name":"LAS PALMAS","address":null,"city":"EL REMOLINO","state":null,"postal":"\u00c1rea total: 0.1","phone":"","web":"","lat":4.46845,"lng":null},{"name":"LAS PALMAS","address":null,"city":"CORCEGA","state":null,"postal":"\u00c1rea total: 0.64","phone":"","web":"","lat":0,"lng":null},{"name":"LAS ROSAS","address":null,"city":"CAMPO ALEGRE","state":"COCUYOS","postal":"\u00c1rea total: 2.5","phone":"","web":"","lat":0,"lng":null},{"name":"LAS VERANERAS","address":null,"city":"LAS DELICIAS","state":null,"postal":"\u00c1rea total: 1","phone":"","web":"","lat":4.52266,"lng":null},{"name":"LA TRONCADA","address":null,"city":"B\/ EL CHANCO","state":null,"postal":"\u00c1rea total: 0.3","phone":"","web":"","lat":0,"lng":null},{"name":"LA UNION","address":null,"city":"CHONTADURO","state":null,"postal":"\u00c1rea total: 7","phone":"","web":"","lat":0,"lng":null},{"name":"LA VEGA","address":null,"city":"YOLOMBA","state":"EL AVISO DE POKER","postal":"\u00c1rea total: 0.8","phone":"","web":"","lat":0,"lng":null},{"name":"LA VEGA","address":null,"city":"YOLOMBA","state":"LA POQUER LAVADERO","postal":"\u00c1rea total: 24","phone":"","web":"","lat":0,"lng":null},{"name":"LA VEREDA","address":null,"city":"REGADEROS","state":null,"postal":"\u00c1rea total: 4","phone":"","web":"","lat":3.3925,"lng":null},{"name":"LA VICTORIA","address":null,"city":"EL SALTO","state":null,"postal":"\u00c1rea total: 0.64","phone":"","web":"","lat":0,"lng":null},{"name":"LA VILLA","address":null,"city":"CORCEGA","state":null,"postal":"\u00c1rea total: 0.5","phone":"","web":"","lat":0,"lng":null},{"name":"LA VIOLETA","address":null,"city":"CARRISALES","state":null,"postal":"\u00c1rea total: 0.15","phone":"","web":"","lat":0,"lng":null},{"name":"LIBARDO","address":null,"city":"GUARE","state":null,"postal":"\u00c1rea total: 0.6","phone":"","web":"","lat":0,"lng":null},{"name":"LIBARDO","address":null,"city":"GUARE","state":null,"postal":"\u00c1rea total: 0.6","phone":"","web":"","lat":0,"lng":null},{"name":"LIBARDO","address":null,"city":"GUARE","state":null,"postal":"\u00c1rea total: 0.6","phone":"","web":"","lat":0,"lng":null},{"name":"LOS ALAMOS","address":null,"city":"LA GUAJIRA","state":null,"postal":"\u00c1rea total: 0.64","phone":"","web":"","lat":0,"lng":null},{"name":"LOS ANDES","address":null,"city":"SAN JOSE","state":"EL CHIRCAL","postal":"\u00c1rea total: 0.14","phone":"","web":"","lat":0,"lng":null},{"name":"LOS BUENOS","address":null,"city":"KILOMETRO 26","state":"LOS BUENOS","postal":"\u00c1rea total: 0.06","phone":"","web":"","lat":0,"lng":null},{"name":"LOS GUADUALES","address":null,"city":"EL CRUCERO","state":null,"postal":"\u00c1rea total: 0.64","phone":"","web":"","lat":0,"lng":null},{"name":"LOS LAGOS","address":null,"city":"LOMITAS","state":null,"postal":"\u00c1rea total: 1.5","phone":"","web":"","lat":0,"lng":null},{"name":"LOS MANGOS","address":null,"city":"LA CALLETONA","state":null,"postal":"\u00c1rea total: 2","phone":"","web":"","lat":0,"lng":null},{"name":"LOS MANGOS","address":null,"city":"LA CALLETONA","state":null,"postal":"\u00c1rea total: 2","phone":"","web":"","lat":0,"lng":null},{"name":"LOS MANGOS","address":null,"city":"LA CALLETONA","state":null,"postal":"\u00c1rea total: 2","phone":"","web":"","lat":0,"lng":null},{"name":"LOS NARANJOS","address":null,"city":"HIGUERONCITO","state":null,"postal":"\u00c1rea total: 1.28","phone":"","web":"","lat":0,"lng":null},{"name":"LOS NARANJOS","address":null,"city":"HIGUERONCITO","state":null,"postal":"\u00c1rea total: 1.28","phone":"","web":"","lat":0,"lng":null},{"name":"LOS NIVELES MICAL","address":null,"city":"VALLESI","state":null,"postal":"\u00c1rea total: 30","phone":"","web":"","lat":0,"lng":null},{"name":"LOS NIVELES MICAL","address":null,"city":"VALLESI","state":null,"postal":"\u00c1rea total: 6","phone":"","web":"","lat":0,"lng":null},{"name":"LOS OLIVOS","address":null,"city":"CHAGRES","state":"LA CANCHA","postal":"\u00c1rea total: 1","phone":"","web":"","lat":0,"lng":null},{"name":"LOS URAPANES","address":null,"city":null,"state":null,"postal":"\u00c1rea total: 4","phone":"","web":"","lat":0,"lng":null},{"name":"LOS URAPANES","address":null,"city":null,"state":null,"postal":"\u00c1rea total: 4","phone":"","web":"","lat":0,"lng":null},{"name":"LOS VALENCIA","address":null,"city":"ZABALETA","state":null,"postal":"\u00c1rea total: 1","phone":"","web":"","lat":3.74,"lng":null},{"name":"LOTE","address":null,"city":"SAN FRANCISCO","state":null,"postal":"\u00c1rea total: 0.4","phone":"","web":"","lat":0,"lng":null},{"name":"LOTE","address":null,"city":"CORCEGA","state":null,"postal":"\u00c1rea total: 1","phone":"","web":"","lat":0,"lng":null},{"name":"LOTE MAYOR","address":null,"city":"REMOLINO","state":null,"postal":"\u00c1rea total: 0.64","phone":"","web":"","lat":0,"lng":null},{"name":"LUCITANIA","address":null,"city":"LLANOGRANDE","state":null,"postal":"\u00c1rea total: 20","phone":"","web":"","lat":0,"lng":null},{"name":"LUCITANIA","address":null,"city":"LLANOGRANDE","state":null,"postal":"\u00c1rea total: 20","phone":"","web":"","lat":0,"lng":null},{"name":"MANDIVA","address":null,"city":"VILLA PAZ","state":"LA  GUACA","postal":"\u00c1rea total: 1.28","phone":"","web":"","lat":3.13133,"lng":null},{"name":"MANGO VICHE","address":null,"city":"CGTO ROZO","state":"CENTRO","postal":"\u00c1rea total: 0.34","phone":"","web":"","lat":3.61382,"lng":null},{"name":"MANICONGO","address":null,"city":"LLANO BAJO","state":null,"postal":"\u00c1rea total: 3","phone":"","web":"","lat":3.69,"lng":null},{"name":"MANZANITA","address":null,"city":"CONSUEGRA","state":"CERCA AL PUENTE R\u00cdO DAGUA","postal":"\u00c1rea total: 0.08","phone":"","web":"","lat":0,"lng":null},{"name":"MARA\u00d1ON","address":null,"city":"BUCHITOLO","state":"CAPILLA-POSTE #4","postal":"\u00c1rea total: 0.5","phone":"","web":"","lat":0,"lng":null},{"name":"MARIA CATA\u00d1O","address":null,"city":"CAMPO ALEGRE","state":null,"postal":"\u00c1rea total: 0.3","phone":"","web":"","lat":0,"lng":null},{"name":"MARIA  JOSE","address":null,"city":"SAN JOSE","state":null,"postal":"\u00c1rea total: 0.73","phone":"","web":"","lat":0,"lng":null},{"name":"MARIANELA","address":null,"city":"BUCHITOLO","state":"LA PARCELA","postal":"\u00c1rea total: 0.17","phone":"","web":"","lat":0,"lng":null},{"name":"MATA CABALLO","address":null,"city":"LAS CAMELIAS","state":"MATA CABALLO","postal":"\u00c1rea total: 0.06","phone":"","web":"","lat":0,"lng":null},{"name":"MI BOHIO","address":null,"city":"ZABALETA","state":null,"postal":"\u00c1rea total: 4","phone":"","web":"","lat":3.74,"lng":null},{"name":"MI GRANJITA","address":null,"city":"CHORRERAS","state":"CHORRERAS","postal":"\u00c1rea total: 6","phone":"","web":"","lat":0,"lng":null},{"name":"MIRA LAGO","address":null,"city":"PUERTA NEGRA","state":null,"postal":"\u00c1rea total: 1.92","phone":"","web":"","lat":0,"lng":null},{"name":"MIRALOE","address":null,"city":"PARCELACION SAN FERNANDO","state":null,"postal":"\u00c1rea total: 0.02","phone":"","web":"","lat":0,"lng":null},{"name":"MIRAVALLES","address":null,"city":"LA DEBORA","state":"EL LAGO","postal":"\u00c1rea total: 12","phone":"","web":"","lat":0,"lng":null},{"name":"MIRAVALLES","address":null,"city":"LA DEBORA","state":"EL LAGO","postal":"\u00c1rea total: 12","phone":"","web":"","lat":0,"lng":null},{"name":"MONTE HERMOSO","address":null,"city":"ZANJON DE PIEDRAS","state":null,"postal":"\u00c1rea total: 1","phone":"","web":"","lat":4.16782,"lng":null},{"name":"MONTEVIDEO","address":null,"city":"EL DIAMANTE","state":null,"postal":"\u00c1rea total: 21","phone":"","web":"","lat":0,"lng":null},{"name":"MONTEVIDEO","address":null,"city":"EL DIAMANTE","state":null,"postal":"\u00c1rea total: 21","phone":"","web":"","lat":0,"lng":null},{"name":"NAPOLES 12","address":null,"city":"GUAIRA","state":null,"postal":"\u00c1rea total: 0.64","phone":"","web":"","lat":0,"lng":null},{"name":"NN","address":null,"city":"EL CRUCERO SEGUNDA ETAPA","state":null,"postal":"\u00c1rea total: 0.04","phone":"","web":"","lat":0,"lng":null},{"name":"NN","address":null,"city":"TOCOTA","state":null,"postal":"\u00c1rea total: 0.01","phone":"","web":"","lat":0,"lng":null},{"name":"N.N","address":null,"city":"CAMPO ALEGRE","state":null,"postal":"\u00c1rea total: 0.01","phone":"","web":"","lat":0,"lng":null},{"name":"NOGALES","address":null,"city":"BAJO CONGAL","state":"BAJO CONGAL","postal":"\u00c1rea total: 16.3","phone":"","web":"","lat":0,"lng":null},{"name":"NO TIENE","address":null,"city":"LAS CAMELIAS","state":"KM 95","postal":"\u00c1rea total: 2.5","phone":"","web":"","lat":0,"lng":null},{"name":"NO TIENE NOMBRE","address":null,"city":"SAN JOSE","state":"EL CHIRCAL","postal":"\u00c1rea total: 0.18","phone":"","web":"","lat":0,"lng":null},{"name":"NO TIENE NOMBRE","address":null,"city":"SAN JOSE","state":null,"postal":"\u00c1rea total: 0.73","phone":"","web":"","lat":0,"lng":null},{"name":"NO TIENE NOMBRE","address":null,"city":"GUACANAL","state":null,"postal":"\u00c1rea total: 1","phone":"","web":"","lat":3.40933,"lng":null},{"name":"PAJARES","address":null,"city":"CORCEGA","state":null,"postal":"\u00c1rea total: 1","phone":"","web":"","lat":0,"lng":null},{"name":"PALOMINO","address":null,"city":"CHAGRES","state":"PALOMINO","postal":"\u00c1rea total: 0.64","phone":"","web":"","lat":0,"lng":null},{"name":"PALOMINO","address":null,"city":null,"state":null,"postal":"\u00c1rea total: 0.64","phone":"","web":"","lat":0,"lng":null},{"name":"PALOMINO","address":null,"city":"CHAGRES","state":"PALOMINO","postal":"\u00c1rea total: 0.4","phone":"","web":"","lat":0,"lng":null},{"name":"PEDREGAL","address":null,"city":"LA CALLETONA","state":null,"postal":"\u00c1rea total: 1.3","phone":"","web":"","lat":0,"lng":null},{"name":"PENSILVANIA","address":null,"city":"SAN ANTONIO","state":"PARTE CENTRO EN EL ANTIGUO TANQUE DEL ACUEDUCTO","postal":"\u00c1rea total: 1.6","phone":"","web":"","lat":0,"lng":null},{"name":"PI\u00d1A","address":null,"city":"ZABALETAS","state":null,"postal":"\u00c1rea total: 2","phone":"","web":"","lat":3.74,"lng":null},{"name":"PLAYA GRANDE","address":null,"city":"LLANO BAJO","state":null,"postal":"\u00c1rea total: 1.5","phone":"","web":"","lat":3.69,"lng":null},{"name":"PLAYA LARGA","address":null,"city":"PLAYA AMARILLA","state":null,"postal":"\u00c1rea total: 1","phone":"","web":"","lat":0,"lng":null},{"name":"PLAYA RICA","address":null,"city":"AGUAMONA","state":null,"postal":"\u00c1rea total: 3","phone":"","web":"","lat":3.85,"lng":null},{"name":"PORVENIR","address":null,"city":"CARRISAELS","state":null,"postal":"\u00c1rea total: 0.15","phone":"","web":"","lat":0,"lng":null},{"name":"PREDIO 2 CARMELITA","address":null,"city":"MIRAFLORES","state":"MIRAFLORES","postal":"\u00c1rea total: 3.5","phone":"","web":"","lat":0,"lng":null},{"name":"PUENTE ARANDA","address":null,"city":"HIGUERONCITO","state":"HIGURONCITO0","postal":"\u00c1rea total: 0.7","phone":"","web":"","lat":4.3147,"lng":null},{"name":"PUERTO CARRERO","address":null,"city":"CHAGRES","state":null,"postal":"\u00c1rea total: 0.64","phone":"","web":"","lat":0,"lng":null},{"name":"RANCHO  J","address":null,"city":"LA SOMBRA","state":null,"postal":"\u00c1rea total: 1.28","phone":"","web":"","lat":0,"lng":null},{"name":"RENACER","address":null,"city":"LA LINEA","state":null,"postal":"\u00c1rea total: 1","phone":"","web":"","lat":4.89437,"lng":null},{"name":"RESERVA NATURAL MONTEVIDEO","address":null,"city":"EL DIAMANTE","state":null,"postal":"\u00c1rea total: 21","phone":"","web":"","lat":0,"lng":null},{"name":"RIO BAMBA","address":null,"city":"SAN JOSE","state":null,"postal":"\u00c1rea total: 0.25","phone":"","web":"","lat":0,"lng":null},{"name":"SAN ANTONIO","address":null,"city":"ZANJON DE PIEDRA","state":null,"postal":"\u00c1rea total: 0.79","phone":"","web":"","lat":0,"lng":null},{"name":"SANTA ROSA","address":null,"city":"ZABALETAS","state":null,"postal":"\u00c1rea total: 2","phone":"","web":"","lat":3.74,"lng":null},{"name":"TEJEDA","address":null,"city":"CORCEGA","state":null,"postal":"\u00c1rea total: 0.64","phone":"","web":"","lat":0,"lng":null},{"name":"TEJEDAS","address":null,"city":"CORCEGA","state":null,"postal":"\u00c1rea total: 0.64","phone":"","web":"","lat":0,"lng":null},{"name":"TEJEDAS","address":null,"city":"TEJEDAS","state":null,"postal":"\u00c1rea total: 0.64","phone":"","web":"","lat":0,"lng":null},{"name":"TERRENO AL BORDE DE CARRETERA PRINCIPAL, 15 PLAZAS","address":null,"city":"LAS CAMELIAS","state":"KMS 44","postal":"\u00c1rea total: 0.15","phone":"","web":"","lat":0,"lng":null},{"name":"TERRENO ALQUILADO \/ SIN NOMBRE","address":null,"city":null,"state":null,"postal":"\u00c1rea total: 0.01","phone":"","web":"","lat":0,"lng":null},{"name":"TERRENO CERCA A LOBOGUERRERO","address":null,"city":"POKER","state":"LOBOGUERRERO","postal":"\u00c1rea total: 0.01","phone":"","web":"","lat":0,"lng":null},{"name":"TERRENO CONSUEGRA","address":null,"city":"CONSUEGRA","state":"V\u00cdA AL LIMONAR","postal":"\u00c1rea total: 1","phone":"","web":"","lat":0,"lng":null},{"name":"TERRENO CONSUEGRA","address":null,"city":"CONSUEGRA","state":"PARTE BAJA CONSUEGRA","postal":"\u00c1rea total: 0.02","phone":"","web":"","lat":0,"lng":null},{"name":"TERRENO CONSUEGRA","address":null,"city":"CONSUEGRA","state":"LIMONAR","postal":"\u00c1rea total: 0.01","phone":"","web":"","lat":0,"lng":null},{"name":"TERRENO DE 1 HECT\u00c1REA, SIN NOMBRE","address":null,"city":"LAS CAMELIAS","state":"KM 43","postal":"\u00c1rea total: 0.01","phone":"","web":"","lat":0,"lng":null},{"name":"TERRENO DE 5000 MTS ALQUILADO \/ SIN NOMBRE","address":null,"city":"CONSUEGRA","state":"V\u00cdA AL LIMONAR, DESPU\u00c9S DEL PUENTE R\u00cdO DAGUA","postal":"\u00c1rea total: 0.05","phone":"","web":"","lat":0,"lng":null},{"name":"TERRENO DE SUELO EN PENDIENTE","address":null,"city":"EL PJAAL","state":"DESDE SAN VICENTE.","postal":"\u00c1rea total: 0.15","phone":"","web":"","lat":0,"lng":null},{"name":"TERRENO EN ARRIENDO \/ SIN NOMBRE","address":null,"city":"CONSUEGRA","state":"PARTE MEDIA DE MONTA\u00d1A, TERRENO CONSUEGRA","postal":"\u00c1rea total: 0.05","phone":"","web":"","lat":0,"lng":null},{"name":"TERRENO KM 43","address":null,"city":"LAS CAMELIAS","state":"KM 43","postal":"\u00c1rea total: 0.05","phone":"","web":"","lat":0,"lng":null},{"name":"TERRENO SOBRE CARRETERA","address":null,"city":"LAS CAMELIAS","state":"PI\u00d1AS DEL 44","postal":"\u00c1rea total: 0.05","phone":"","web":"","lat":0,"lng":null},{"name":"TERRENO SOBRE CARRETERA","address":null,"city":"LAS CAMELIAS","state":"PI\u00d1AS DEL 44","postal":"\u00c1rea total: 0.21","phone":"","web":"","lat":0,"lng":null},{"name":"TESORITO","address":null,"city":"TESORITO","state":null,"postal":"\u00c1rea total: 20","phone":"","web":"","lat":0,"lng":null},{"name":"TESORITO","address":null,"city":"EL ARENILLO","state":"HUECO FRIO","postal":"\u00c1rea total: 2.01","phone":"","web":"","lat":3.317619,"lng":null},{"name":"VALENCIA","address":null,"city":"ZABALETAS","state":null,"postal":"\u00c1rea total: 1.5","phone":"","web":"","lat":3.74,"lng":null},{"name":"VALPARA\u00cdSO","address":null,"city":"LA CUCHILLA","state":"LA CUCHILLA","postal":"\u00c1rea total: 9.6","phone":"","web":"","lat":0,"lng":null},{"name":"VEREDA MONTEHERMOSO","address":null,"city":"MONTEHERMOSO","state":null,"postal":"\u00c1rea total: 1","phone":"","web":"","lat":0,"lng":null},{"name":"VEREDA MONTEHERMOSO","address":null,"city":"MONTEHERMOSO","state":null,"postal":"\u00c1rea total: 1","phone":"","web":"","lat":0,"lng":null},{"name":"VIENA RICA","address":null,"city":"LOMITAS","state":null,"postal":"\u00c1rea total: 15","phone":"","web":"","lat":0,"lng":null},{"name":"VILLA  ANGELES","address":null,"city":"LA VIRGEN","state":null,"postal":"\u00c1rea total: 0.6","phone":"","web":"","lat":0,"lng":null},{"name":"VILLA AURA","address":null,"city":"BOCAS DE TULUA","state":null,"postal":"\u00c1rea total: 0.64","phone":"","web":"","lat":0,"lng":null},{"name":"VILLA CLAUS","address":null,"city":"LA CALLETANA","state":null,"postal":"\u00c1rea total: 1.5","phone":"","web":"","lat":0,"lng":null},{"name":"VILLA DEL SOL","address":null,"city":"LA TIGRERA","state":null,"postal":"\u00c1rea total: 15","phone":"","web":"","lat":0,"lng":null},{"name":"VILLA DORIS","address":null,"city":"EL CARMEN","state":null,"postal":"\u00c1rea total: 0.64","phone":"","web":"","lat":0,"lng":null},{"name":"VILLA ELVIRA","address":null,"city":"AVISPAL","state":"QUINAMAYO","postal":"\u00c1rea total: 0.2","phone":"","web":"","lat":0,"lng":null},{"name":"VILLAESTELA","address":null,"city":"EL ORIENTE","state":null,"postal":"\u00c1rea total: 0.58","phone":"","web":"","lat":0,"lng":null},{"name":"VILLAFELPA","address":null,"city":"REGADEROS","state":null,"postal":"\u00c1rea total: 2","phone":"","web":"","lat":3.3522,"lng":null},{"name":"VILLA IRIS","address":null,"city":"LA CAMPANA","state":null,"postal":"\u00c1rea total: 0.32","phone":"","web":"","lat":0,"lng":null},{"name":"VILLA LINA","address":null,"city":"JARDIN","state":null,"postal":"\u00c1rea total: 3.2","phone":"","web":"","lat":0,"lng":null},{"name":"VILLALUZ","address":null,"city":"PALOMINO","state":"PALOMINO","postal":"\u00c1rea total: 5","phone":"","web":"","lat":0,"lng":null},{"name":"VILLA MANUELA","address":null,"city":"MESTIZAL","state":null,"postal":"\u00c1rea total: 0.4","phone":"","web":"","lat":4.225425,"lng":null},{"name":"VILLA MONICA","address":null,"city":"TRES PUERTAS","state":null,"postal":"\u00c1rea total: 0.6","phone":"","web":"","lat":0,"lng":null},{"name":"VILLA SAN","address":null,"city":"EL CARMEN","state":null,"postal":"\u00c1rea total: 0.64","phone":"","web":"","lat":0,"lng":null},{"name":"VILLA SANDRA","address":null,"city":"LA CALLETANA","state":null,"postal":"\u00c1rea total: 1","phone":"","web":"","lat":0,"lng":null},{"name":"VILLA SUSY","address":null,"city":"SANJON DE PIEDRA","state":"CALLEJON ANTES DE LA CAPILLA","postal":"\u00c1rea total: 1.28","phone":"","web":"","lat":0,"lng":null},{"name":"VILLA SUSY","address":null,"city":"SANJON DE PIEDRA","state":"CALLEJON ANTES DE LA CAPILLA","postal":"\u00c1rea total: 1.28","phone":"","web":"","lat":0,"lng":null},{"name":"VILLA SUSY","address":null,"city":"SANJON DE PIEDRA","state":"CALLEJON ANTES DE LA CAPILLA","postal":"\u00c1rea total: 1.28","phone":"","web":"","lat":0,"lng":null},{"name":"VILLA SUSY","address":null,"city":"SANJON DE PIEDRA","state":"CALLEJON ANTES DE LA CAPILLA","postal":"\u00c1rea total: 1.28","phone":"","web":"","lat":0,"lng":null},{"name":"VILLA SUSY","address":null,"city":"SANJON DE PIEDRA","state":"CALLEJON ANTES DE LA CAPILLA","postal":"\u00c1rea total: 1.28","phone":"","web":"","lat":0,"lng":null},{"name":"VILLA SUSY","address":null,"city":"SANJON DE PIEDRA","state":"CALLEJON ANTES DE LA CAPILLA","postal":"\u00c1rea total: 1.28","phone":"","web":"","lat":0,"lng":null},{"name":"VILLA SUSY","address":null,"city":"SANJON DE PIEDRA","state":"CALLEJON ANTES DE LA CAPILLA","postal":"\u00c1rea total: 1.28","phone":"","web":"","lat":0,"lng":null},{"name":"VILLA SUSY","address":null,"city":"SANJON DE PIEDRA","state":"CALLEJON ANTES DE LA CAPILLA","postal":"\u00c1rea total: 1.28","phone":"","web":"","lat":0,"lng":null},{"name":"VILLA SUSY","address":null,"city":"SANJON DE PIEDRA","state":"CALLEJON ANTES DE LA CAPILLA","postal":"\u00c1rea total: 1.28","phone":"","web":"","lat":0,"lng":null},{"name":"VILLA SUSY","address":null,"city":"SANJON DE PIEDRA","state":"CALLEJON ANTES DE LA CAPILLA","postal":"\u00c1rea total: 1.28","phone":"","web":"","lat":0,"lng":null},{"name":"VILLA SUSY","address":null,"city":"SANJON DE PIEDRA","state":"CALLEJON ANTES DE LA CAPILLA","postal":"\u00c1rea total: 1.28","phone":"","web":"","lat":0,"lng":null},{"name":"VILLA SUSY","address":null,"city":"SANJON DE PIEDRA","state":"CALLEJON ANTES DE LA CAPILLA","postal":"\u00c1rea total: 1.28","phone":"","web":"","lat":0,"lng":null},{"name":"VILLA SUSY","address":null,"city":"SANJON DE PIEDRA","state":"CALLEJON ANTES DE LA CAPILLA","postal":"\u00c1rea total: 1.28","phone":"","web":"","lat":0,"lng":null},{"name":"VILLAVISTA","address":null,"city":"AGUAMONA","state":"AGRADO","postal":"\u00c1rea total: 1","phone":"","web":"","lat":3.83,"lng":null},{"name":"YONIKI","address":null,"city":"PASO ANCHO","state":null,"postal":"\u00c1rea total: 0.64","phone":"","web":"","lat":0,"lng":null},{"name":"ZIPAQUIRA","address":null,"city":"PLAYA AMARILLA","state":"QUINAMAYO","postal":"\u00c1rea total: 0.64","phone":"","web":"","lat":0,"lng":null}]